[
    {
        "direccion": "Terminal Vicente Guerrero",
        "latitud": -23.582565,
        "longitud": -46.541819
    },
    {
        "direccion": "Avenida De Los Maestros, 4202",
        "latitud": 21.846958,
        "longitud": -102.319963
    },
    {
        "direccion": "Bodega Aurrera",
        "latitud": 14.895371,
        "longitud": -92.274252
    },
    {
        "direccion": "Avenida Siglo Xxi, 3832",
        "latitud": 21.867082,
        "longitud": -102.244575
    },
    {
        "direccion": "Avenida Siglo Xxi, 3306",
        "latitud": 21.843706,
        "longitud": -102.312933
    },
    {
        "direccion": "Dolores Del R\u00edo, 116",
        "latitud": 19.371155,
        "longitud": -99.214826
    },
    {
        "direccion": "Corsel 134(Inta",
        "latitud": 42.33795,
        "longitud": -74.450982
    },
    {
        "direccion": "Prolongaci\u00f3n Paseo De La Asunci\u00f3n, 2",
        "latitud": 21.847088,
        "longitud": -102.301412
    },
    {
        "direccion": "Prolongaci\u00f3n Paseo De La Asunci\u00f3n, 212",
        "latitud": 21.855103,
        "longitud": -102.300881
    },
    {
        "direccion": "Prolongaci\u00f3n Paseo De La Asunci\u00f3n, Sn(Ct)",
        "latitud": 51.34083,
        "longitud": 12.375101
    },
    {
        "direccion": "Quinta Avenida, 813",
        "latitud": 25.732788,
        "longitud": -100.276789
    },
    {
        "direccion": "Rep\u00fablica De Brasil, 609",
        "latitud": 22.120846,
        "longitud": -100.968612
    },
    {
        "direccion": "Central Camionera",
        "latitud": 20.626872,
        "longitud": -103.290748
    },
    {
        "direccion": "Convencion 1914 Sur, 308",
        "latitud": 21.881764,
        "longitud": -102.272303
    },
    {
        "direccion": "Avenida Jos\u00e9 Maria Ch\u00e1vez, 1217",
        "latitud": 0.929787,
        "longitud": -75.891209
    },
    {
        "direccion": "Avenida Jos\u00e9 Maria Ch\u00e1vez, 1014",
        "latitud": 0.929787,
        "longitud": -75.891209
    },
    {
        "direccion": "Avenida Jos\u00e9 Maria Ch\u00e1vez, 710",
        "latitud": 0.929787,
        "longitud": -75.891209
    },
    {
        "direccion": "Jose Maria Chavez, 524",
        "latitud": 21.874943,
        "longitud": -102.294822
    },
    {
        "direccion": "5 De Mayo, 401",
        "latitud": -36.397785,
        "longitud": -72.401006
    },
    {
        "direccion": "5 De Mayo, 552-558",
        "latitud": 19.054828,
        "longitud": -98.297606
    },
    {
        "direccion": "Petr\u00f3leos Mexicanos, 215",
        "latitud": 21.891621,
        "longitud": -102.294683
    },
    {
        "direccion": "General Miguel Barrag\u00e1n, 1224",
        "latitud": 21.895973,
        "longitud": -102.291221
    },
    {
        "direccion": "A Zacatecas, 1711",
        "latitud": 22.170181,
        "longitud": -100.981729
    },
    {
        "direccion": "Boulevard A Zacatecas, 1404(1402)",
        "latitud": 21.908643,
        "longitud": -102.29212
    },
    {
        "direccion": "H\u00e9roe De Nacozari Norte, 3005",
        "latitud": 21.911913,
        "longitud": -102.291685
    },
    {
        "direccion": "A Zacatecas, Km5",
        "latitud": 22.171074,
        "longitud": -100.98209
    },
    {
        "direccion": "Carretera Federal 45 845",
        "latitud": 18.59679,
        "longitud": -95.444812
    },
    {
        "direccion": "Centro Comercial Altaria",
        "latitud": -23.475042,
        "longitud": -46.533213
    },
    {
        "direccion": "A Zacatecas, 309",
        "latitud": 22.171614,
        "longitud": -100.982778
    },
    {
        "direccion": "Aguascalientes - San Francisco De Los Romo, 273",
        "latitud": 21.885428,
        "longitud": -102.258244
    },
    {
        "direccion": "Carretera Panamericana, 18",
        "latitud": 2.644894,
        "longitud": -76.53589
    },
    {
        "direccion": "Venustiano Carranza, 101",
        "latitud": 17.991418,
        "longitud": -92.917987
    },
    {
        "direccion": "Avenida Margaritas, 201a",
        "latitud": 19.01166,
        "longitud": -98.213848
    },
    {
        "direccion": "Antiguo Camino A Zacatecas, 500",
        "latitud": 21.989638,
        "longitud": -102.293468
    },
    {
        "direccion": "Terminal Margaritas",
        "latitud": -35.386666,
        "longitud": -57.336953
    }
]