{"type":"FeatureCollection","features":[{"type":"Feature","properties":{"stop_id":"100716-NAGRO-SAN1:2","stop_code":"54","stop_name":"Nuevo Agropecuario - Viñedos San Marcos","location_type":0,"wheelchair_boarding":0,"routes":[],"agency_name":"Coordinación General de Movilidad"},"geometry":{"type":"Point","coordinates":[-102.28991,21.96995]}},{"type":"Feature","properties":{"stop_id":"100716-ARGE-REAL1:2","stop_code":"53","stop_name":"Paseo de Argenta - Los Reales","location_type":0,"wheelchair_boarding":0,"routes":[],"agency_name":"Coordinación General de Movilidad"},"geometry":{"type":"Point","coordinates":[-102.29001,21.98799]}},{"type":"Feature","properties":{"stop_id":"100716-PANAM-MOR1:2","stop_code":"52","stop_name":"Carretera Panamericana - Morelos","location_type":0,"wheelchair_boarding":0,"routes":[],"agency_name":"Coordinación General de Movilidad"},"geometry":{"type":"Point","coordinates":[-102.28871,21.99333]}},{"type":"Feature","properties":{"stop_id":"100716-PANAM1:2","stop_code":"51","stop_name":"Carretera Panamericana","location_type":0,"wheelchair_boarding":0,"routes":[],"agency_name":"Coordinación General de Movilidad"},"geometry":{"type":"Point","coordinates":[-102.28849,21.99908]}},{"type":"Feature","properties":{"stop_id":"100716-MARG-PORT2_1:2","stop_code":"50","stop_name":"Calle Paseo Margaritas - Paseos Gómez Portugal","location_type":0,"wheelchair_boarding":0,"routes":[],"agency_name":"Coordinación General de Movilidad"},"geometry":{"type":"Point","coordinates":[-102.28851,22.0014]}},{"type":"Feature","properties":{"stop_id":"100716-MARG-ANT1:2","stop_code":"49","stop_name":"Calle Paseo Margaritas - Calle Paseo San Antonio","location_type":0,"wheelchair_boarding":0,"routes":[],"agency_name":"Coordinación General de Movilidad"},"geometry":{"type":"Point","coordinates":[-102.28937,22.00247]}},{"type":"Feature","properties":{"stop_id":"100716-GOMETERM1:1","stop_code":"48","stop_name":"Terminal de Camiones Gómez Portugal","location_type":0,"wheelchair_boarding":0,"routes":[],"agency_name":"Coordinación General de Movilidad"},"geometry":{"type":"Point","coordinates":[-102.29557,22.00123]}},{"type":"Feature","properties":{"stop_id":"100716-MARG-PORT1:1","stop_code":"47","stop_name":"Calle Paseo Margaritas - Paseos Gómez Portugal","location_type":0,"wheelchair_boarding":0,"routes":[],"agency_name":"Coordinación General de Movilidad"},"geometry":{"type":"Point","coordinates":[-102.29117,22.00307]}},{"type":"Feature","properties":{"stop_id":"100716-PANAM-BUGA1:1","stop_code":"46","stop_name":"Carretera Panamericana - Bugambilia","location_type":0,"wheelchair_boarding":0,"routes":[],"agency_name":"Coordinación General de Movilidad"},"geometry":{"type":"Point","coordinates":[-102.28815,21.99812]}},{"type":"Feature","properties":{"stop_id":"100716-PANAM1:1","stop_code":"45","stop_name":"Carretera Panamericana","location_type":0,"wheelchair_boarding":0,"routes":[],"agency_name":"Coordinación General de Movilidad"},"geometry":{"type":"Point","coordinates":[-102.29076,21.99039]}},{"type":"Feature","properties":{"stop_id":"100716-CARRE45-VIÑ1:1","stop_code":"44","stop_name":"Carretera Federal 45 - Viñedos Rivier","location_type":0,"wheelchair_boarding":0,"routes":[],"agency_name":"Coordinación General de Movilidad"},"geometry":{"type":"Point","coordinates":[-102.28923,21.97332]}},{"type":"Feature","properties":{"stop_id":"100716-CARRE45-SFR1:1","stop_code":"43","stop_name":"Carretera Federal 45 - San Francisco de los Romos","location_type":0,"wheelchair_boarding":0,"routes":[],"agency_name":"Coordinación General de Movilidad"},"geometry":{"type":"Point","coordinates":[-102.28943,21.96941]}},{"type":"Feature","properties":{"stop_id":"100716-CARRE45-PARQ1:1","stop_code":"42","stop_name":"Carretera Federal 45 - Parque Industrial","location_type":0,"wheelchair_boarding":0,"routes":[],"agency_name":"Coordinación General de Movilidad"},"geometry":{"type":"Point","coordinates":[-102.28955,21.96601]}},{"type":"Feature","properties":{"stop_id":"100716-ZAC-FLEX1:1","stop_code":"41","stop_name":"Blvd. A Zacatecas - Flextronics","location_type":0,"wheelchair_boarding":0,"routes":[],"agency_name":"Coordinación General de Movilidad"},"geometry":{"type":"Point","coordinates":[-102.28927,21.96145]}},{"type":"Feature","properties":{"stop_id":"100716-ZAC-ESPEC3_1:1","stop_code":"40","stop_name":"Blvd. A Zacatecas - San Francisco de los Romos","location_type":0,"wheelchair_boarding":0,"routes":[],"agency_name":"Coordinación General de Movilidad"},"geometry":{"type":"Point","coordinates":[-102.29069,21.94232]}},{"type":"Feature","properties":{"stop_id":"100716-ZAC-ESPEC2_1:1","stop_code":"39","stop_name":"Blvd. A Zacatecas - Duragas","location_type":0,"wheelchair_boarding":0,"routes":[],"agency_name":"Coordinación General de Movilidad"},"geometry":{"type":"Point","coordinates":[-102.29105,21.93335]}},{"type":"Feature","properties":{"stop_id":"100716-ZAC-ESPEC1_1:1","stop_code":"38","stop_name":"Blvd. A Zacatecas - Pasteurizadora Aguascalientes","location_type":0,"wheelchair_boarding":0,"routes":[],"agency_name":"Coordinación General de Movilidad"},"geometry":{"type":"Point","coordinates":[-102.29124,21.92936]}},{"type":"Feature","properties":{"stop_id":"100716-ZAC-ALTARIA1:1","stop_code":"37","stop_name":"Blvd. A Zacatecas - Centro Comercial Altaria","location_type":0,"wheelchair_boarding":0,"routes":[],"agency_name":"Coordinación General de Movilidad"},"geometry":{"type":"Point","coordinates":[-102.2912,21.92453]}},{"type":"Feature","properties":{"stop_id":"100716-NACOZ-NORT1:1","stop_code":"36","stop_name":"Av. Héroe de Nacozari Nte","location_type":0,"wheelchair_boarding":0,"routes":[],"agency_name":"Coordinación General de Movilidad"},"geometry":{"type":"Point","coordinates":[-102.29154,21.91155]}},{"type":"Feature","properties":{"stop_id":"100716-ZAC-AGLA1:1","stop_code":"35","stop_name":"Blvd. A Zacatecas - Aglaya","location_type":0,"wheelchair_boarding":0,"routes":[],"agency_name":"Coordinación General de Movilidad"},"geometry":{"type":"Point","coordinates":[-102.29223,21.90744]}},{"type":"Feature","properties":{"stop_id":"100716-ZAC-EBA1:1","stop_code":"34","stop_name":"Blvd. A Zacatecas - Ébano","location_type":0,"wheelchair_boarding":0,"routes":[],"agency_name":"Coordinación General de Movilidad"},"geometry":{"type":"Point","coordinates":[-102.29234,21.90456]}},{"type":"Feature","properties":{"stop_id":"100716-ZAC-CELSO1:1","stop_code":"33","stop_name":"Blvd. A Zacatecas - Celso Bernal","location_type":0,"wheelchair_boarding":0,"routes":[],"agency_name":"Coordinación General de Movilidad"},"geometry":{"type":"Point","coordinates":[-102.29238,21.90303]}},{"type":"Feature","properties":{"stop_id":"100716-BARRAG-ALFRED1:1","stop_code":"32","stop_name":"General Miguel Barragan - Calle Alfredo Lewis","location_type":0,"wheelchair_boarding":0,"routes":[],"agency_name":"Coordinación General de Movilidad"},"geometry":{"type":"Point","coordinates":[-102.2923,21.89943]}},{"type":"Feature","properties":{"stop_id":"100716-JOSE-BARRAG1:1","stop_code":"31","stop_name":"Prof Jose Reyes Martinez - General Miguel Barragan","location_type":0,"wheelchair_boarding":0,"routes":[],"agency_name":"Coordinación General de Movilidad"},"geometry":{"type":"Point","coordinates":[-102.29192,21.89635]}},{"type":"Feature","properties":{"stop_id":"100716-PETMEX-ENR1:1","stop_code":"30","stop_name":"Petróleos Mexicanos - Gral. Enrique Estrada","location_type":0,"wheelchair_boarding":0,"routes":[],"agency_name":"Coordinación General de Movilidad"},"geometry":{"type":"Point","coordinates":[-102.29366,21.89273]}},{"type":"Feature","properties":{"stop_id":"100716-5MAY-JESMA1:1","stop_code":"29","stop_name":"5 de Mayo - Jesús María","location_type":0,"wheelchair_boarding":0,"routes":[],"agency_name":"Coordinación General de Movilidad"},"geometry":{"type":"Point","coordinates":[-102.29544,21.88926]}},{"type":"Feature","properties":{"stop_id":"100716-5MAY-MARI1:1","stop_code":"28","stop_name":"5 de Mayo - Plaza del Mariachi","location_type":0,"wheelchair_boarding":0,"routes":[],"agency_name":"Coordinación General de Movilidad"},"geometry":{"type":"Point","coordinates":[-102.29669,21.88722]}},{"type":"Feature","properties":{"stop_id":"100716-5MAY-ZCEN1:1","stop_code":"27","stop_name":"5 de Mayo - Zona Centro","location_type":0,"wheelchair_boarding":0,"routes":[],"agency_name":"Coordinación General de Movilidad"},"geometry":{"type":"Point","coordinates":[-102.29769,21.88474]}},{"type":"Feature","properties":{"stop_id":"100716-CHAV-VICEN1:1","stop_code":"26","stop_name":"Av José Ma. Chávez - Profra. Vicenta Trujillo","location_type":0,"wheelchair_boarding":0,"routes":[],"agency_name":"Coordinación General de Movilidad"},"geometry":{"type":"Point","coordinates":[-102.29519,21.8765]}},{"type":"Feature","properties":{"stop_id":"100716-CHAV-PIMEN1:1","stop_code":"25","stop_name":"Av José Ma. Chávez - Pimentel","location_type":0,"wheelchair_boarding":0,"routes":[],"agency_name":"Coordinación General de Movilidad"},"geometry":{"type":"Point","coordinates":[-102.29487,21.87519]}},{"type":"Feature","properties":{"stop_id":"100716-AVJOS-AVCRUZ1:1","stop_code":"24","stop_name":"Av José Ma. Chávez - Av Paseo de la Cruz","location_type":0,"wheelchair_boarding":0,"routes":[],"agency_name":"Coordinación General de Movilidad"},"geometry":{"type":"Point","coordinates":[-102.29502,21.87142]}},{"type":"Feature","properties":{"stop_id":"100716-AVJOS-SALON1:1","stop_code":"23","stop_name":"Av José Ma. Chávez - Centro de Convenciones Medrano","location_type":0,"wheelchair_boarding":0,"routes":[],"agency_name":"Coordinación General de Movilidad"},"geometry":{"type":"Point","coordinates":[-102.29491,21.87068]}},{"type":"Feature","properties":{"stop_id":"100716-AVJOS-HER1:1","stop_code":"22","stop_name":"Av José Ma. Chávez - Hernán González","location_type":0,"wheelchair_boarding":0,"routes":[],"agency_name":"Coordinación General de Movilidad"},"geometry":{"type":"Point","coordinates":[-102.29452,21.86834]}},{"type":"Feature","properties":{"stop_id":"100716-AVJOS-CLIN1_1:1","stop_code":"21","stop_name":"Av José Ma. Chávez - Imss Zona 1","location_type":0,"wheelchair_boarding":0,"routes":[],"agency_name":"Coordinación General de Movilidad"},"geometry":{"type":"Point","coordinates":[-102.29414,21.86609]}},{"type":"Feature","properties":{"stop_id":"100716-AVCON-QUINT1:1","stop_code":"20","stop_name":"Av de la Convención de 1914 - Quinta Avenida","location_type":0,"wheelchair_boarding":0,"routes":[],"agency_name":"Coordinación General de Movilidad"},"geometry":{"type":"Point","coordinates":[-102.29769,21.86581]}},{"type":"Feature","properties":{"stop_id":"100716-CENTRALCAM1:1","stop_code":"19","stop_name":"Central Camionera Aguascalientes","location_type":0,"wheelchair_boarding":0,"routes":[],"agency_name":"Coordinación General de Movilidad"},"geometry":{"type":"Point","coordinates":[-102.29898,21.86604]}},{"type":"Feature","properties":{"stop_id":"100716-REPB-REPG1:1","stop_code":"18","stop_name":"República de Brasil - República de Guatemala","location_type":0,"wheelchair_boarding":0,"routes":[],"agency_name":"Coordinación General de Movilidad"},"geometry":{"type":"Point","coordinates":[-102.29952,21.86567]}},{"type":"Feature","properties":{"stop_id":"100716-QUINT-REPH1:1","stop_code":"17","stop_name":"Quinta Avenida - República de Honduras","location_type":0,"wheelchair_boarding":0,"routes":[],"agency_name":"Coordinación General de Movilidad"},"geometry":{"type":"Point","coordinates":[-102.29883,21.86325]}},{"type":"Feature","properties":{"stop_id":"100716-QUINT-FRAY1:1","stop_code":"16","stop_name":"Quinta Avenida - Fray Antonio de Segovia","location_type":0,"wheelchair_boarding":0,"routes":[],"agency_name":"Coordinación General de Movilidad"},"geometry":{"type":"Point","coordinates":[-102.29992,21.86155]}},{"type":"Feature","properties":{"stop_id":"100716-AVAGSSUR1:1","stop_code":"15","stop_name":"Avenida Aguascalientes Sur - Prol Paseo de la Asunción","location_type":0,"wheelchair_boarding":0,"routes":[],"agency_name":"Coordinación General de Movilidad"},"geometry":{"type":"Point","coordinates":[-102.29917,21.85992]}},{"type":"Feature","properties":{"stop_id":"100716-PROL-PASEO_1:1","stop_code":"14","stop_name":"Prol Paseo de la Asunción - Nevado de Colima","location_type":0,"wheelchair_boarding":0,"routes":[],"agency_name":"Coordinación General de Movilidad"},"geometry":{"type":"Point","coordinates":[-102.29963,21.85888]}},{"type":"Feature","properties":{"stop_id":"100716-PILAR-PROL5_1:1","stop_code":"13","stop_name":"Pilar Blanco - Prol. Paseo de la Asunción","location_type":0,"wheelchair_boarding":0,"routes":[],"agency_name":"Coordinación General de Movilidad"},"geometry":{"type":"Point","coordinates":[-102.30066,21.85623]}},{"type":"Feature","properties":{"stop_id":"100716-PILAR-PROL4_1:1","stop_code":"12","stop_name":"Pilar Blanco - Prol. Paseo de la Asunción","location_type":0,"wheelchair_boarding":0,"routes":[],"agency_name":"Coordinación General de Movilidad"},"geometry":{"type":"Point","coordinates":[-102.30082,21.8554]}},{"type":"Feature","properties":{"stop_id":"100716-PILAR-PROL3_1:1","stop_code":"11","stop_name":"Pilar Blanco - Prol. Paseo de la Asunción","location_type":0,"wheelchair_boarding":0,"routes":[],"agency_name":"Coordinación General de Movilidad"},"geometry":{"type":"Point","coordinates":[-102.30082,21.8524]}},{"type":"Feature","properties":{"stop_id":"100716-PILAR-PROL2_1:1","stop_code":"10","stop_name":"Pilar Blanco - Prol. Paseo de la Asunción","location_type":0,"wheelchair_boarding":0,"routes":[],"agency_name":"Coordinación General de Movilidad"},"geometry":{"type":"Point","coordinates":[-102.30104,21.85016]}},{"type":"Feature","properties":{"stop_id":"100716-PILAR-PROL1_1:1","stop_code":"9","stop_name":"Pilar Blanco - Prol. Paseo de la Asunción","location_type":0,"wheelchair_boarding":0,"routes":[],"agency_name":"Coordinación General de Movilidad"},"geometry":{"type":"Point","coordinates":[-102.30124,21.84702]}},{"type":"Feature","properties":{"stop_id":"100716-SIXXI-DOLR1:1","stop_code":"8","stop_name":"Avenida Siglo XXI - Dolores Del Río","location_type":0,"wheelchair_boarding":0,"routes":[],"agency_name":"Coordinación General de Movilidad"},"geometry":{"type":"Point","coordinates":[-102.30505,21.84549]}},{"type":"Feature","properties":{"stop_id":"100716-SIXXI-OXXO1:1","stop_code":"7","stop_name":"Avenida Siglo XXI - Oxxo Gas Cualli","location_type":0,"wheelchair_boarding":0,"routes":[],"agency_name":"Coordinación General de Movilidad"},"geometry":{"type":"Point","coordinates":[-102.30834,21.8449]}},{"type":"Feature","properties":{"stop_id":"100716-SIXXI-PANTE1:1","stop_code":"6","stop_name":"Avenida Siglo XXI - Panteón San Francisco","location_type":0,"wheelchair_boarding":0,"routes":[],"agency_name":"Coordinación General de Movilidad"},"geometry":{"type":"Point","coordinates":[-102.31276,21.84373]}},{"type":"Feature","properties":{"stop_id":"100716-SIXXI-SANMO1:1","stop_code":"5","stop_name":"Avenida Siglo XXI - Santa Monica","location_type":0,"wheelchair_boarding":0,"routes":[],"agency_name":"Coordinación General de Movilidad"},"geometry":{"type":"Point","coordinates":[-102.31684,21.84258]}},{"type":"Feature","properties":{"stop_id":"100716-SIXXI-BODE1:1","stop_code":"4","stop_name":"Avenida Siglo XXI - Bodega Aurrerá Santa Mónica","location_type":0,"wheelchair_boarding":0,"routes":[],"agency_name":"Coordinación General de Movilidad"},"geometry":{"type":"Point","coordinates":[-102.32184,21.84283]}},{"type":"Feature","properties":{"stop_id":"100716-MAES-BARAN1:1","stop_code":"3","stop_name":"Av. de los Maestros - Barandales de San José","location_type":0,"wheelchair_boarding":0,"routes":[],"agency_name":"Coordinación General de Movilidad"},"geometry":{"type":"Point","coordinates":[-102.32203,21.84489]}},{"type":"Feature","properties":{"stop_id":"100716-MAES-CAMI1:1","stop_code":"2","stop_name":"Av. de los Maestros - Camilo López","location_type":0,"wheelchair_boarding":0,"routes":[],"agency_name":"Coordinación General de Movilidad"},"geometry":{"type":"Point","coordinates":[-102.32017,21.8473]}},{"type":"Feature","properties":{"stop_id":"100716-GRAL-TERM1:1","stop_code":"1","stop_name":"Terminal de Camiones Vicente Guerrero","location_type":0,"wheelchair_boarding":0,"routes":[],"agency_name":"Coordinación General de Movilidad"},"geometry":{"type":"Point","coordinates":[-102.31962,21.8489]}},{"type":"Feature","properties":{"stop_id":"100716-CAMI-LUIS1:2","stop_code":"94","stop_name":"Ing. Camilo Arriaga -Gral. Maclovio Herrera","location_type":0,"wheelchair_boarding":0,"routes":[],"agency_name":"Coordinación General de Movilidad"},"geometry":{"type":"Point","coordinates":[-102.31636,21.84971]}},{"type":"Feature","properties":{"stop_id":"100716-MAES-REV1:2","stop_code":"93","stop_name":"Av. de los Maestros - Av Revolución","location_type":0,"wheelchair_boarding":0,"routes":[],"agency_name":"Coordinación General de Movilidad"},"geometry":{"type":"Point","coordinates":[-102.3193,21.84869]}},{"type":"Feature","properties":{"stop_id":"100716-MAES-MOREL1:2","stop_code":"92","stop_name":"Av. de los Maestros - Morelos","location_type":0,"wheelchair_boarding":0,"routes":[],"agency_name":"Coordinación General de Movilidad"},"geometry":{"type":"Point","coordinates":[-102.32026,21.84643]}},{"type":"Feature","properties":{"stop_id":"100716-SIXXI-SANANT1:2","stop_code":"91","stop_name":"Avenida Siglo XXI - San Antonio","location_type":0,"wheelchair_boarding":0,"routes":[],"agency_name":"Coordinación General de Movilidad"},"geometry":{"type":"Point","coordinates":[-102.31767,21.84278]}},{"type":"Feature","properties":{"stop_id":"100716-SIXXI-PADUA1:2","stop_code":"90","stop_name":"Avenida Siglo XXI - Padua","location_type":0,"wheelchair_boarding":0,"routes":[],"agency_name":"Coordinación General de Movilidad"},"geometry":{"type":"Point","coordinates":[-102.31232,21.84425]}},{"type":"Feature","properties":{"stop_id":"100716-SIXXI-LAZCAR1:2","stop_code":"89","stop_name":"Avenida Siglo XXI - Lázaro Cardenas","location_type":0,"wheelchair_boarding":0,"routes":[],"agency_name":"Coordinación General de Movilidad"},"geometry":{"type":"Point","coordinates":[-102.3103,21.84483]}},{"type":"Feature","properties":{"stop_id":"100716-PROL-SIXXI1:2","stop_code":"88","stop_name":"Prol Paseo de la Asunción - Avenida Siglo Xxi","location_type":0,"wheelchair_boarding":0,"routes":[],"agency_name":"Coordinación General de Movilidad"},"geometry":{"type":"Point","coordinates":[-102.30162,21.84562]}},{"type":"Feature","properties":{"stop_id":"100716-PROL-JULIAN1:2","stop_code":"87","stop_name":"Prol Paseo de la Asunción - Gral. Julián Medina","location_type":0,"wheelchair_boarding":0,"routes":[],"agency_name":"Coordinación General de Movilidad"},"geometry":{"type":"Point","coordinates":[-102.30145,21.84713]}},{"type":"Feature","properties":{"stop_id":"100716-PROL-MARIAN1:2","stop_code":"86","stop_name":"Prol Paseo de la Asunción - Av Dr Mariano Azuela","location_type":0,"wheelchair_boarding":0,"routes":[],"agency_name":"Coordinación General de Movilidad"},"geometry":{"type":"Point","coordinates":[-102.30116,21.85107]}},{"type":"Feature","properties":{"stop_id":"100716-PROL-OLIVA1:2","stop_code":"85","stop_name":"Prol Paseo de la Asunción - Prof. Enrique Olivares Santana","location_type":0,"wheelchair_boarding":0,"routes":[],"agency_name":"Coordinación General de Movilidad"},"geometry":{"type":"Point","coordinates":[-102.30121,21.85342]}},{"type":"Feature","properties":{"stop_id":"100716-PROL-DIEGO1:2","stop_code":"84","stop_name":"Prol Paseo de la Asunción - Prol. Diego Fernández Villa","location_type":0,"wheelchair_boarding":0,"routes":[],"agency_name":"Coordinación General de Movilidad"},"geometry":{"type":"Point","coordinates":[-102.30112,21.85597]}},{"type":"Feature","properties":{"stop_id":"100716-PROL-NEVADO_1:2","stop_code":"83","stop_name":"Prol Paseo de la Asunción - Nevado de Colima","location_type":0,"wheelchair_boarding":0,"routes":[],"agency_name":"Coordinación General de Movilidad"},"geometry":{"type":"Point","coordinates":[-102.29947,21.85892]}},{"type":"Feature","properties":{"stop_id":"100716-QUAVE-REPM1:2","stop_code":"82","stop_name":"Quinta Avenida - República Mexicana","location_type":0,"wheelchair_boarding":0,"routes":[],"agency_name":"Coordinación General de Movilidad"},"geometry":{"type":"Point","coordinates":[-102.29923,21.8632]}},{"type":"Feature","properties":{"stop_id":"100716-QUAVE-GUATE1:2","stop_code":"81","stop_name":"Quinta Avenida - República de Guatemala","location_type":0,"wheelchair_boarding":0,"routes":[],"agency_name":"Coordinación General de Movilidad"},"geometry":{"type":"Point","coordinates":[-102.29829,21.86545]}},{"type":"Feature","properties":{"stop_id":"100716-AVCONS-AVJOS1:2","stop_code":"80","stop_name":"Av de la Convención de 1914 Sur - Av José Ma. Chávez","location_type":0,"wheelchair_boarding":0,"routes":[],"agency_name":"Coordinación General de Movilidad"},"geometry":{"type":"Point","coordinates":[-102.29368,21.8653]}},{"type":"Feature","properties":{"stop_id":"100716-AVJOS-LEAGS1:2","stop_code":"79","stop_name":"Av José Ma. Chávez - León Aguascalientes","location_type":0,"wheelchair_boarding":0,"routes":[],"agency_name":"Coordinación General de Movilidad"},"geometry":{"type":"Point","coordinates":[-102.29462,21.86699]}},{"type":"Feature","properties":{"stop_id":"100716-AVJOS-GAND1:2","stop_code":"78","stop_name":"Av José Ma. Chávez - Av Mahatma Gandhi","location_type":0,"wheelchair_boarding":0,"routes":[],"agency_name":"Coordinación General de Movilidad"},"geometry":{"type":"Point","coordinates":[-102.29519,21.87028]}},{"type":"Feature","properties":{"stop_id":"100716-AVCR-COLON1:2","stop_code":"77","stop_name":"Av Paseo de la Cruz - Calle Cristobal Colon","location_type":0,"wheelchair_boarding":0,"routes":[],"agency_name":"Coordinación General de Movilidad"},"geometry":{"type":"Point","coordinates":[-102.29238,21.87244]}},{"type":"Feature","properties":{"stop_id":"100716-DIAZ-ENCINO1:2","stop_code":"76","stop_name":"Dr Jesús Díaz de León - Jardín del Encino","location_type":0,"wheelchair_boarding":0,"routes":[],"agency_name":"Coordinación General de Movilidad"},"geometry":{"type":"Point","coordinates":[-102.29255,21.87507]}},{"type":"Feature","properties":{"stop_id":"100716-DIAZ-SOL1:2","stop_code":"75","stop_name":"Dr Jesús Díaz de León - Del Sol","location_type":0,"wheelchair_boarding":0,"routes":[],"agency_name":"Coordinación General de Movilidad"},"geometry":{"type":"Point","coordinates":[-102.29339,21.87775]}},{"type":"Feature","properties":{"stop_id":"100716-DIAZ-ACEV1:2","stop_code":"74","stop_name":"Dr Jesús Díaz de León - Antonio Acevedo E","location_type":0,"wheelchair_boarding":0,"routes":[],"agency_name":"Coordinación General de Movilidad"},"geometry":{"type":"Point","coordinates":[-102.29418,21.88008]}},{"type":"Feature","properties":{"stop_id":"100716-JOPAV-MER1:2","stop_code":"73","stop_name":"José María Morelos y Pavon - Mercado Morelos","location_type":0,"wheelchair_boarding":0,"routes":[],"agency_name":"Coordinación General de Movilidad"},"geometry":{"type":"Point","coordinates":[-102.29568,21.88469]}},{"type":"Feature","properties":{"stop_id":"100716-JOMA-JARD1:2","stop_code":"72","stop_name":"Gral. José María Artega - Jardín de Zaragoza","location_type":0,"wheelchair_boarding":0,"routes":[],"agency_name":"Coordinación General de Movilidad"},"geometry":{"type":"Point","coordinates":[-102.29654,21.88681]}},{"type":"Feature","properties":{"stop_id":"100716-JOMA-ZARAG1:2","stop_code":"71","stop_name":"Gral. José María Artega - Calle Gral. Ignacio Zaragoza","location_type":0,"wheelchair_boarding":0,"routes":[],"agency_name":"Coordinación General de Movilidad"},"geometry":{"type":"Point","coordinates":[-102.29386,21.88938]}},{"type":"Feature","properties":{"stop_id":"100716-MEX-FRESNI1:2","stop_code":"70","stop_name":"México - Fresnillo","location_type":0,"wheelchair_boarding":0,"routes":[],"agency_name":"Coordinación General de Movilidad"},"geometry":{"type":"Point","coordinates":[-102.29391,21.89035]}},{"type":"Feature","properties":{"stop_id":"100716-PETMEX-GRAV1:2","stop_code":"69","stop_name":"Petróleos Mexicanos - Gran Avenida","location_type":0,"wheelchair_boarding":0,"routes":[],"agency_name":"Coordinación General de Movilidad"},"geometry":{"type":"Point","coordinates":[-102.29396,21.89244]}},{"type":"Feature","properties":{"stop_id":"100716-PETMEX-HORN1:2","stop_code":"68","stop_name":"Petróleos Mexicanos - Calle Privada Norberto Gómez Hornedo","location_type":0,"wheelchair_boarding":0,"routes":[],"agency_name":"Coordinación General de Movilidad"},"geometry":{"type":"Point","coordinates":[-102.29319,21.89352]}},{"type":"Feature","properties":{"stop_id":"100716-PETMEX-GERT1:2","stop_code":"67","stop_name":"Petróleos Mexicanos - Gertrudis Berkefer","location_type":0,"wheelchair_boarding":0,"routes":[],"agency_name":"Coordinación General de Movilidad"},"geometry":{"type":"Point","coordinates":[-102.29298,21.89652]}},{"type":"Feature","properties":{"stop_id":"100716-PETMEX-LEW1:2","stop_code":"66","stop_name":"Petróleos Mexicanos - Calle Alfredo Lewis","location_type":0,"wheelchair_boarding":0,"routes":[],"agency_name":"Coordinación General de Movilidad"},"geometry":{"type":"Point","coordinates":[-102.29257,21.89934]}},{"type":"Feature","properties":{"stop_id":"100716-ZAC-EBA1:2","stop_code":"65","stop_name":"Blvd. A Zacatecas -Ébano","location_type":0,"wheelchair_boarding":0,"routes":[],"agency_name":"Coordinación General de Movilidad"},"geometry":{"type":"Point","coordinates":[-102.29266,21.90425]}},{"type":"Feature","properties":{"stop_id":"100716-ZAC-PLAT1:2","stop_code":"64","stop_name":"Blvd. A Zacatecas - El Plateado","location_type":0,"wheelchair_boarding":0,"routes":[],"agency_name":"Coordinación General de Movilidad"},"geometry":{"type":"Point","coordinates":[-102.29243,21.90831]}},{"type":"Feature","properties":{"stop_id":"100716-ZAC-AGROPE1:2","stop_code":"63","stop_name":"Blvd. A Zacatecas - Agropecuario","location_type":0,"wheelchair_boarding":0,"routes":[],"agency_name":"Coordinación General de Movilidad"},"geometry":{"type":"Point","coordinates":[-102.29227,21.91383]}},{"type":"Feature","properties":{"stop_id":"100716-ZAC-GALER1:2","stop_code":"62","stop_name":"Blvd. A Zacatecas - Galerias","location_type":0,"wheelchair_boarding":0,"routes":[],"agency_name":"Coordinación General de Movilidad"},"geometry":{"type":"Point","coordinates":[-102.29198,21.92388]}},{"type":"Feature","properties":{"stop_id":"100716-ZAC-TROJEH1:2","stop_code":"61","stop_name":"Blvd. A Zacatecas - Hotel Las Trojes","location_type":0,"wheelchair_boarding":0,"routes":[],"agency_name":"Coordinación General de Movilidad"},"geometry":{"type":"Point","coordinates":[-102.29182,21.92634]}},{"type":"Feature","properties":{"stop_id":"100716-LUIS-ZAC1:2","stop_code":"60","stop_name":"Luis Gil - Blvd. A Zacatecas","location_type":0,"wheelchair_boarding":0,"routes":[],"agency_name":"Coordinación General de Movilidad"},"geometry":{"type":"Point","coordinates":[-102.29193,21.93093]}},{"type":"Feature","properties":{"stop_id":"100716-ZAC-BODE1:2","stop_code":"59","stop_name":"Blvd. A Zacatecas - Mini bodegas Guardabox","location_type":0,"wheelchair_boarding":0,"routes":[],"agency_name":"Coordinación General de Movilidad"},"geometry":{"type":"Point","coordinates":[-102.2914,21.93339]}},{"type":"Feature","properties":{"stop_id":"100716-NIHER-ZAC1:2","stop_code":"58","stop_name":"Av. Niños Heroes - Blvd. A Zacatecas","location_type":0,"wheelchair_boarding":0,"routes":[],"agency_name":"Coordinación General de Movilidad"},"geometry":{"type":"Point","coordinates":[-102.29141,21.93881]}},{"type":"Feature","properties":{"stop_id":"100716-FLEXTRONIX1:2","stop_code":"57","stop_name":"Flextronics","location_type":0,"wheelchair_boarding":0,"routes":[],"agency_name":"Coordinación General de Movilidad"},"geometry":{"type":"Point","coordinates":[-102.29024,21.96024]}},{"type":"Feature","properties":{"stop_id":"100716-VENAD-PASE1:2","stop_code":"56","stop_name":"Calle Paseos de Venaderos - Calle Paseo de Frutilandia","location_type":0,"wheelchair_boarding":0,"routes":[],"agency_name":"Coordinación General de Movilidad"},"geometry":{"type":"Point","coordinates":[-102.29236,21.96328]}},{"type":"Feature","properties":{"stop_id":"100716-ZAC-MARAV1:2","stop_code":"55","stop_name":"Blvd. A Zacatecas - Calle Paseos de Maravillas","location_type":0,"wheelchair_boarding":0,"routes":[],"agency_name":"Coordinación General de Movilidad"},"geometry":{"type":"Point","coordinates":[-102.29002,21.96845]}}]}